,City,Lat,Lng,Max Temp,Humidity,Cloudiness,Wind Speed,Country,Date
0,New Norfolk,-42.7826,147.0587,51.71,80,100,3.0,AU,1661885990
1,Constitución,-35.3333,-72.4167,57.47,71,68,7.9,CL,1661885991
2,Cherskiy,68.75,161.3,34.66,89,23,12.48,RU,1661885991
3,Ushuaia,-54.8,-68.3,49.66,57,75,5.75,AR,1661885992
4,Baní,18.2833,-70.3333,90.84,55,99,12.3,DO,1661885992
5,Río Gallegos,-51.6226,-69.2181,60.85,33,20,12.66,AR,1661885992
6,Cockburn Town,21.4612,-71.1419,87.76,62,40,9.22,TC,1661885993
7,Rikitea,-23.1203,-134.9692,73.78,81,5,10.31,PF,1661885993
8,Hobart,-42.8794,147.3294,52.05,74,40,11.5,AU,1661885993
9,Lata,40.1629,-8.3327,69.82,62,0,6.02,PT,1661885994
10,Nāthdwāra,24.9333,73.8167,77.85,71,27,5.28,IN,1661885994
11,Tasiilaq,65.6145,-37.6368,38.39,97,100,19.91,GL,1661885995
12,Busselton,-33.65,115.3333,50.31,80,32,8.37,AU,1661885995
13,Sulangan,11.1373,123.7228,84.34,68,89,2.42,PH,1661885995
14,Hermanus,-34.4187,19.2345,54.81,64,0,27.34,ZA,1661885996
15,Kazygurt,41.7589,69.3864,69.91,23,0,4.88,KZ,1661885996
16,Prince Rupert,54.3161,-130.3201,60.89,96,75,4.61,CA,1661885997
17,Cape Town,-33.9258,18.4232,58.26,48,0,12.66,ZA,1661885997
18,Puerto Ayora,-0.7393,-90.3518,75.16,86,54,5.99,EC,1661885997
19,Mar del Plata,-38.0023,-57.5575,64.42,57,0,15.99,AR,1661885732
20,Kamenka,51.3223,42.7678,73.56,37,83,7.31,RU,1661885998
21,Smoky Lake,54.1169,-112.4686,82.56,41,0,10.36,CA,1661885998
22,Bethel,41.3712,-73.414,92.05,61,98,1.99,US,1661885965
23,Pisco,-13.7,-76.2167,64.45,68,40,9.22,PE,1661885702
24,Lakselv,70.0513,24.9718,46.22,81,75,4.61,NO,1661885737
25,Tiznit Province,29.5833,-9.5,83.37,45,81,6.13,MA,1661885999
26,Krasnosel'kup,65.7,82.4667,42.69,87,100,21.32,RU,1661885999
27,Ortigueira,-24.2083,-50.9494,67.93,39,5,6.06,BR,1661886000
28,Hambantota,6.1241,81.1185,75.54,100,75,1.14,LK,1661886000
29,Zhangjiakou,40.81,114.8794,57.11,73,0,3.58,CN,1661886001
30,George Town,5.4112,100.3354,78.89,92,40,3.44,MY,1661885827
31,Punta Arenas,-53.15,-70.9167,45.28,77,99,12.1,CL,1661886001
32,Gilbués,-9.8317,-45.3439,94.01,19,7,8.46,BR,1661886002
33,Ahipara,-35.1667,173.1667,51.04,79,95,4.5,NZ,1661886003
34,Dwārka,22.2394,68.9678,79.52,83,7,8.57,IN,1661886003
35,Olden,61.8364,6.8064,59.74,67,0,4.0,NO,1661886004
36,Arraial do Cabo,-22.9661,-42.0278,65.61,57,100,12.01,BR,1661886004
37,Upernavik,72.7868,-56.1549,38.23,79,100,12.26,GL,1661886005
38,Mizque,-17.941,-65.3402,76.8,34,7,12.97,BO,1661886005
39,Kloulklubed,7.0419,134.2556,82.89,70,100,2.28,PW,1661886006
40,Ewo,-0.8725,14.8206,79.68,62,7,2.08,CG,1661886007
41,Chui,-33.6971,-53.4616,57.88,64,0,9.17,UY,1661885883
42,Bubaque,11.2833,-15.8333,79.56,82,100,22.15,GW,1661886007
43,Igrim,63.1906,64.4162,50.67,81,100,5.75,RU,1661886008
44,San Patricio,28.017,-97.5169,89.83,56,100,10.96,US,1661886008
45,Bredasdorp,-34.5322,20.0403,53.46,66,0,18.61,ZA,1661886009
46,Ponta do Sol,32.6667,-17.1,75.7,74,0,6.44,PT,1661886009
47,Dikson,73.5069,80.5464,40.19,95,100,15.99,RU,1661886010
48,East London,-33.0153,27.9116,56.98,54,6,11.21,ZA,1661886007
49,Port Lincoln,-34.7333,135.8667,51.24,63,81,5.97,AU,1661886010
50,Husavik,66.0449,-17.3389,61.3,68,94,19.44,IS,1661885835
51,Tuktoyaktuk,69.4541,-133.0374,48.27,81,20,2.84,CA,1661886011
52,Isangel,-19.55,169.2667,70.75,64,77,13.89,VU,1661886012
53,Henties Bay,-22.116,14.2845,55.81,82,0,4.21,NA,1661886012
54,Tiksi,71.6872,128.8694,41.94,92,100,7.31,RU,1661886012
55,San Martín,-33.081,-68.4681,68.54,16,0,12.77,AR,1661885718
56,Dhidhdhoo,6.8833,73.1,80.35,80,100,20.29,MV,1661885765
57,Iqaluit,63.7506,-68.5145,47.7,70,0,10.0,CA,1661886013
58,Torbay,47.6666,-52.7314,77.88,68,95,5.82,CA,1661886014
59,Castro,-24.7911,-50.0119,56.93,64,18,10.85,BR,1661886014
60,Haines Junction,60.7522,-137.5108,52.99,69,93,4.47,CA,1661886014
61,Geraldton,-28.7667,114.6,43.21,93,0,5.75,AU,1661886015
62,Ixtapa,20.7,-105.2,87.22,66,43,3.0,MX,1661886015
63,Hithadhoo,-0.6,73.0833,80.94,73,100,16.04,MV,1661886016
64,Jamestown,42.097,-79.2353,71.02,72,75,8.05,US,1661885790
65,Bluff,-46.6,168.3333,43.81,81,33,13.82,NZ,1661886016
66,Saint-Philippe,-21.3585,55.7679,71.19,81,32,7.49,RE,1661886017
67,Qaanaaq,77.484,-69.3632,34.29,64,8,0.76,GL,1661886017
68,Albany,42.6001,-73.9662,89.58,43,100,13.13,US,1661885994
69,Sitka,57.0531,-135.33,57.09,82,100,6.91,US,1661886018
70,Zhoucun,36.8167,117.8167,64.35,93,1,4.45,CN,1661886018
71,Barrow,71.2906,-156.7887,41.02,87,100,8.05,US,1661886019
72,Yellowknife,62.456,-114.3525,59.56,67,100,15.01,CA,1661886005
73,Lavrentiya,65.5833,-171.0,43.9,99,100,13.27,RU,1661886019
74,Katobu,-4.9408,122.5276,74.1,94,100,2.77,ID,1661886020
75,Hidalgotitlán,17.7833,-94.6333,89.62,65,44,1.83,MX,1661886020
76,Kapaa,22.0752,-159.319,80.1,86,23,5.99,US,1661885749
77,Provideniya,64.3833,-173.3,48.47,98,100,13.18,RU,1661886021
78,Bac Lieu,9.285,105.7244,79.93,84,95,5.46,VN,1661886021
79,Aklavik,68.2191,-135.0107,55.71,63,78,2.37,CA,1661886022
80,Vangaindrano,-23.35,47.6,67.5,93,17,4.59,MG,1661886022
81,Mataura,-46.1927,168.8643,43.48,95,13,3.44,NZ,1661886023
82,Mahébourg,-20.4081,57.7,67.24,76,8,10.87,MU,1661886023
83,Muskogee,35.5834,-95.3336,94.96,60,90,5.66,US,1661886023
84,Russell,32.3502,-85.1999,94.96,40,52,3.87,US,1661886024
85,Kaitangata,-46.2817,169.8464,42.1,85,88,4.16,NZ,1661886025
86,Hofn,64.2539,-15.2082,52.86,98,100,14.09,IS,1661886025
87,Mayo,38.8876,-76.5119,95.11,63,9,4.0,US,1661886026
88,Yar-Sale,66.8333,70.8333,43.48,85,100,18.07,RU,1661886026
89,Nanchang,28.6833,115.8833,73.36,81,100,9.33,CN,1661886027
90,Kirakira,-10.4544,161.9205,80.46,82,100,15.66,SB,1661886027
91,Coquimbo,-29.9533,-71.3436,58.51,78,88,7.4,CL,1661885954
92,Atuona,-9.8,-139.0333,77.14,64,6,23.64,PF,1661885885
93,Bambous Virieux,-20.3428,57.7575,67.21,75,12,11.1,MU,1661886028
94,Te Anau,-45.4167,167.7167,41.29,92,100,3.33,NZ,1661886029
95,Quryq,43.2,51.65,84.33,27,0,8.25,KZ,1661886029
96,Caravelas,-17.7125,-39.2481,68.65,67,100,13.85,BR,1661886030
97,Lompoc,34.6391,-120.4579,78.94,65,20,5.75,US,1661885765
98,Tuatapere,-46.1333,167.6833,43.07,89,100,7.67,NZ,1661886030
99,Half Moon Bay,37.4636,-122.4286,82.89,71,0,9.22,US,1661886031
100,Port Alfred,-33.5906,26.891,56.17,61,5,1.99,ZA,1661886031
101,Great Yarmouth,52.6083,1.7305,66.45,67,95,17.36,GB,1661886032
102,Vila Velha,-20.3297,-40.2925,67.95,69,93,13.0,BR,1661886032
103,Kruisfontein,-34.0033,24.7314,49.89,70,9,3.53,ZA,1661886033
104,Batagay,67.6333,134.6333,53.44,53,100,2.3,RU,1661886033
105,Kavaratti,10.5669,72.642,80.6,81,100,19.53,IN,1661886034
106,Samarai,-10.6167,150.6667,79.47,86,96,13.53,PG,1661886034
107,Touros,-5.1989,-35.4608,81.01,69,100,20.71,BR,1661886034
108,Campos Altos,-19.6961,-46.1714,70.43,39,98,6.89,BR,1661886035
109,Hilo,19.7297,-155.09,82.27,82,54,1.01,US,1661885847
110,Ondarroa,43.3167,-2.4167,73.38,90,85,3.62,ES,1661886035
111,Cayenne,4.9333,-52.3333,86.04,79,40,12.66,GF,1661886036
112,Perth,-31.9333,115.8333,49.78,86,0,5.75,AU,1661885858
113,Souillac,-20.5167,57.5167,69.19,79,6,10.25,MU,1661886036
114,Novovorontsovka,47.5004,33.9175,80.92,39,0,3.89,UA,1661886037
115,Marsá Maţrūḩ,31.3525,27.2453,79.2,75,0,8.39,EG,1661886037
116,Puerto Escondido,15.85,-97.0667,85.86,68,100,7.25,MX,1661885957
117,Kavieng,-2.5744,150.7967,81.12,80,98,12.88,PG,1661886038
118,Khani,41.9563,42.9566,69.37,48,5,4.85,GE,1661886038
119,Kushiro,42.975,144.3747,64.04,97,100,4.45,JP,1661886039
120,Northam,51.0333,-4.2167,68.4,77,8,15.35,GB,1661886039
121,Puerto Madryn,-42.7692,-65.0385,66.52,23,100,6.44,AR,1661886040
122,Olafsvik,64.8945,-23.7142,49.95,85,100,10.63,IS,1661886040
123,Mitsamiouli,-11.3847,43.2844,75.92,76,0,6.46,KM,1661886040
124,Nioro,13.35,-15.75,75.81,94,100,11.27,GM,1661886041
125,Vaini,-21.2,-175.2,72.54,78,99,16.13,TO,1661886041
126,Gold Coast,-28.0,153.4333,62.01,97,100,2.3,AU,1661886042
127,Pangnirtung,66.1451,-65.7125,47.25,49,0,3.89,CA,1661886042
128,Walvis Bay,-22.9575,14.5053,56.35,82,1,5.75,NA,1661885757
129,Los Llanos de Aridane,28.6585,-17.9182,74.12,82,75,16.11,ES,1661886043
130,Vrangel',42.7297,133.0839,60.84,75,100,5.19,RU,1661886043
131,Bangued,17.5982,120.6155,76.26,93,17,2.13,PH,1661886044
132,Butaritari,3.0707,172.7902,81.41,75,8,18.23,KI,1661886044
133,Parabel',58.6978,81.4825,58.44,85,23,11.03,RU,1661886045
134,Nome,64.5011,-165.4064,48.27,93,100,20.71,US,1661886046
135,Batagay-Alyta,67.8006,130.4114,45.63,97,100,1.66,RU,1661886046
136,Patacamaya,-17.2333,-67.9167,59.76,26,92,3.22,BO,1661886047
137,Boa Vista,2.8197,-60.6733,89.58,51,40,4.61,BR,1661885926
138,Riberalta,-10.9833,-66.1,97.9,20,10,3.65,BO,1661886047
139,Airai,-8.9266,125.4092,57.7,84,4,2.35,TL,1661886048
140,Muisne,0.6,-80.0333,76.51,80,97,12.17,EC,1661886048
141,Longyearbyen,78.2186,15.6401,40.84,70,75,5.75,SJ,1661886049
142,Cascais,38.6979,-9.4215,72.75,59,20,10.36,PT,1661886049
143,Diego de Almagro,-26.3667,-70.05,77.52,15,0,9.01,CL,1661886050
144,Ifakara,-8.1333,36.6833,76.08,47,1,4.43,TZ,1661886050
145,Norman Wells,65.282,-126.8329,62.56,65,100,0.18,CA,1661886051
146,Santa Cruz de La Palma,28.6835,-17.7642,78.13,78,75,16.11,ES,1661886051
147,Bonavista,48.6499,-53.1147,69.44,69,44,12.93,CA,1661886052
148,Gazli,40.1333,63.45,83.71,18,0,9.42,UZ,1661886052
149,Tutóia,-2.7619,-42.2744,82.76,69,49,11.83,BR,1661886052
150,Karratha,-20.7377,116.8463,70.02,38,98,5.57,AU,1661886053
151,Tabuk,17.4189,121.4443,74.68,92,34,1.9,PH,1661886053
152,Makakilo City,21.3469,-158.0858,81.99,68,7,10.04,US,1661886054
153,Novy Urengoy,66.0833,76.6333,40.62,76,100,22.66,RU,1661886054
154,Penzance,50.1186,-5.5371,66.88,76,96,10.89,GB,1661886055
155,Nagua,19.3832,-69.8474,87.1,68,100,9.44,DO,1661886055
156,Cabo San Lucas,22.8909,-109.9124,92.17,70,43,7.11,MX,1661885975
157,Weiser,44.251,-116.9693,92.32,23,10,5.57,US,1661886056
158,Želiezovce,48.0508,18.6542,67.82,60,6,2.57,SK,1661886056
159,Kishtwār,33.3167,75.7667,63.91,89,0,3.18,IN,1661886056
160,Vostok,46.4856,135.8833,48.27,96,1,3.53,RU,1661886057
161,Padang,-0.9492,100.3543,76.3,87,100,2.28,ID,1661886057
162,Port Elizabeth,-33.918,25.5701,53.89,70,20,5.75,ZA,1661885928
163,Paarl,-33.7338,18.9752,57.16,67,0,10.51,ZA,1661886058
164,Khatanga,71.9667,102.5,38.14,91,100,5.35,RU,1661886058
165,Yinchuan,38.4681,106.2731,68.88,31,79,6.44,CN,1661886010
166,Mae Sot,16.7167,98.5667,77.41,97,97,1.05,TH,1661886059
167,Sompeta,18.9333,84.6,82.35,82,13,4.81,IN,1661886059
168,Eureka,40.8021,-124.1637,85.68,72,33,5.68,US,1661886049
169,Grand-Santi,4.25,-54.3833,81.28,79,100,3.76,GF,1661886060
170,Pacifica,37.6138,-122.4869,78.67,73,20,10.36,US,1661886041
171,São Filipe,14.8961,-24.4956,78.33,76,68,11.97,CV,1661886061
172,São João da Barra,-21.6403,-41.0511,66.96,58,87,15.37,BR,1661886061
173,Praia,14.9215,-23.5087,79.63,75,100,7.94,CV,1661886062
174,Chokurdakh,70.6333,147.9167,29.41,94,8,7.09,RU,1661886062
175,Pitimbu,-7.4706,-34.8086,77.76,70,95,19.95,BR,1661886063
176,Necochea,-38.5473,-58.7368,62.4,48,0,14.16,AR,1661886063
177,Huai'an,33.5886,119.0192,63.21,95,100,5.46,CN,1661886064
178,Mandalgovi,45.7625,106.2708,53.1,45,0,6.71,MN,1661886064
179,Waipawa,-41.4122,175.5153,37.11,87,0,6.76,NZ,1661886065
180,Vincennes,48.85,2.4333,79.93,48,0,4.61,FR,1661885798
181,Luanda,-8.8368,13.2343,70.47,90,5,14.18,AO,1661886019
182,Davila,18.4726,120.5763,81.77,81,18,5.1,PH,1661886065
183,Karauli,26.5,77.0167,81.01,80,6,4.68,IN,1661886066
184,Kupang,-10.1667,123.5833,74.82,83,87,3.69,ID,1661886066
185,Simdega,22.6167,84.5167,77.25,85,8,2.42,IN,1661886066
186,Trairi,-3.2778,-39.2689,82.9,60,100,15.12,BR,1661885862
187,Saskylakh,71.9167,114.0833,40.71,89,100,5.35,RU,1661886067
188,Miraflores,19.2167,-98.8083,74.97,63,95,4.29,MX,1661886068
189,Lagoa,39.05,-27.9833,74.62,80,100,4.9,PT,1661886068
190,Sørland,67.667,12.6934,51.66,75,100,14.38,NO,1661886068
191,Paamiut,61.994,-49.6678,39.49,94,100,3.02,GL,1661886069
192,Puerto Baquerizo Moreno,-0.9,-89.6,70.79,88,75,9.22,EC,1661886069
193,Yulara,-25.2406,130.9889,51.91,43,100,15.82,AU,1661885794
194,The Valley,18.217,-63.0578,87.1,69,25,12.44,AI,1661886070
195,Mahibadhoo,3.7833,72.9667,79.38,83,100,19.17,MV,1661886070
196,Lālmohan,22.3384,90.7419,83.84,78,100,7.09,BD,1661886071
197,Ribeira Grande,38.5167,-28.7,77.4,78,40,4.61,PT,1661886071
198,Altamira,-3.2033,-52.2064,93.29,55,40,5.75,BR,1661885997
199,Grootfontein,-19.5667,18.1167,73.04,18,4,6.76,NA,1661886072
200,Huarmey,-10.0681,-78.1522,68.58,68,10,11.65,PE,1661886072
201,Hobyo,5.3505,48.5268,75.97,82,5,26.8,SO,1661886073
202,Mahajanga,-15.7167,46.3167,75.06,73,100,7.38,MG,1661886073
203,Darnah,32.767,22.6367,79.9,78,0,16.24,LY,1661886074
204,Vao,-22.6667,167.4833,70.38,64,65,19.75,NC,1661886074
205,Zavyalovo,54.5053,82.4484,63.93,56,98,8.01,RU,1661886074
206,Guilin,25.2819,110.2864,84.31,92,35,6.6,CN,1661885972
207,Saldanha,-33.0117,17.9442,57.69,50,0,18.99,ZA,1661886075
208,Yangi Marg`ilon,40.4272,71.7189,74.12,43,20,0.0,UZ,1661886075
209,Meulaboh,4.1363,96.1285,75.02,94,100,4.79,ID,1661886076
210,Whitianga,-36.8333,175.7,48.96,81,59,6.4,NZ,1661886076
211,Ol'ga,43.7444,135.2892,53.71,88,100,4.07,RU,1661886077
212,Muroto-misakicho,33.2833,134.15,80.85,85,24,6.17,JP,1661886077
213,Andra,62.5147,65.8878,50.83,89,100,2.64,RU,1661886078
214,Port Hardy,50.6996,-127.4199,66.42,78,1,2.39,CA,1661886048
215,Nikolskoye,59.7035,30.7861,54.88,95,100,12.62,RU,1661886078
216,Inhambane,-23.865,35.3833,66.65,64,100,18.45,MZ,1661886079
217,Labuhan,-6.8844,112.2051,75.22,91,74,7.11,ID,1661886079
218,Mpanda,-6.3655,31.0409,73.13,50,32,4.38,TZ,1661886079
219,Avarua,-21.2078,-159.775,75.25,83,28,2.3,CK,1661886080
220,Chernyshevskiy,63.0128,112.4714,34.54,98,100,7.58,RU,1661886080
221,Kumul,42.8,93.45,77.72,11,4,12.97,CN,1661886081
222,Kulhudhuffushi,6.6221,73.07,80.38,80,100,20.42,MV,1661886081
223,Tigzirt,36.8886,4.1198,84.85,52,2,3.18,DZ,1661886081
224,Camacupa,-12.0167,17.4833,74.16,24,73,0.67,AO,1661886082
225,Porto Nacional,-10.7081,-48.4172,98.15,16,6,4.41,BR,1661886082
226,Rudraprayāg,30.2833,78.9833,74.08,97,52,0.94,IN,1661886083
227,Faanui,-16.4833,-151.75,77.41,77,25,15.68,PF,1661886083
228,Mbaïki,3.8678,17.9892,71.67,91,100,2.35,CF,1661886083
229,Grindavik,63.8424,-22.4338,52.27,87,75,3.44,IS,1661886084
230,Manggar,-2.8833,108.2667,79.32,81,100,5.28,ID,1661886084
231,Ryzdvyany,45.2656,41.8389,79.5,33,75,3.0,RU,1661886085
232,Goderich,43.7501,-81.7165,73.9,62,24,8.99,CA,1661886085
233,Jacareacanga,-6.2222,-57.7528,101.1,15,100,3.29,BR,1661886085
234,General Salgado,-20.6483,-50.3606,79.3,34,100,8.59,BR,1661886086
235,Nový Jičín,49.5944,18.0103,65.82,72,0,5.75,CZ,1661886086
236,Esik,43.3552,77.4525,56.62,34,18,5.46,KZ,1661886087
237,Bathsheba,13.2167,-59.5167,84.45,68,9,16.55,BB,1661886068
238,Chālūs,36.655,51.4204,79.72,55,0,3.06,IR,1661886087
239,Qasigiannguit,68.8193,-51.1922,57.45,49,11,10.8,GL,1661886088
240,Simi Valley,34.2695,-118.7815,103.15,37,0,5.99,US,1661886048
241,Ancud,-41.8697,-73.8203,52.23,76,100,5.35,CL,1661886088
242,Maragogi,-9.0122,-35.2225,76.24,73,20,15.03,BR,1661886088
243,Porto Walter,-8.2686,-72.7439,93.04,28,15,4.36,BR,1661886089
244,Tevaitoa,-16.7833,-151.5,77.92,75,7,16.17,PF,1661886089
245,Matamoros,25.5333,-103.25,84.88,45,72,4.0,MX,1661886090
246,Severo-Kuril'sk,50.6789,156.125,52.92,86,0,11.41,RU,1661886090
247,Orcopampa,-15.2661,-72.3417,61.61,26,96,7.34,PE,1661886091
248,Samaipata,-18.15,-63.8667,68.92,30,0,9.06,BO,1661886091
249,Ambilobe,-13.2,49.05,69.15,82,81,2.91,MG,1661886091
250,Makhachkala,42.9764,47.5024,71.58,59,0,9.42,RU,1661885969
251,Mount Gambier,-37.8333,140.7667,42.6,97,21,5.01,AU,1661886092
252,Ganzhou,28.8184,115.4327,71.96,88,83,4.7,CN,1661886092
253,Constantine,36.365,6.6147,90.81,25,20,9.22,DZ,1661885956
254,Itarema,-2.9248,-39.9167,83.52,58,100,17.25,BR,1661886093
255,Westport,41.1415,-73.3579,91.62,64,15,5.99,US,1661886092
256,Dingle,10.9995,122.6711,76.62,90,93,1.79,PH,1661886093
257,Guarapari,-20.6667,-40.4975,67.89,60,83,13.11,BR,1661886071
258,Vicksburg,32.3526,-90.8779,91.63,62,20,6.91,US,1661886094
259,Karpogory,64.0019,44.4451,49.3,76,100,9.17,RU,1661886094
260,Baturaja,-4.1333,104.1667,72.19,98,100,1.03,ID,1661886095
261,Carnarvon,-24.8667,113.6333,64.42,63,72,15.66,AU,1661886095
262,Mindelo,16.8901,-24.9804,80.15,65,20,18.41,CV,1661886095
263,Markova,48.6758,24.4138,61.5,71,14,4.25,UA,1661886096
264,Ampanihy,-24.7,44.75,65.62,81,47,8.79,MG,1661886096
265,Shebunino,46.4339,141.8603,62.74,91,24,4.23,RU,1661886097
266,Aykhal,66.0,111.5,36.95,96,100,8.41,RU,1661886097
267,Lebu,-37.6167,-73.65,54.3,81,100,3.67,CL,1661886097
268,Sendafa,9.15,39.0333,52.74,84,42,4.41,ET,1661886098
269,Cidreira,-30.1811,-50.2056,59.95,75,0,14.45,BR,1661886098
270,Dzerzhinsk,56.2389,43.4631,64.22,100,75,0.0,RU,1661886098
271,Zabul Province,32.25,67.25,71.04,29,0,10.09,AF,1661886099
272,Troy,42.6056,-83.1499,82.58,59,75,10.36,US,1661885910
273,Nakatsu,33.5981,131.1883,79.18,85,100,4.03,JP,1661886099
274,La Masica,15.6167,-87.1167,84.83,81,76,3.83,HN,1661886100
275,Makkah al Mukarramah,21.4267,39.8261,93.13,46,0,3.89,SA,1661885951
276,Hong Kong,22.2855,114.1577,85.32,86,41,1.99,HK,1661885822
277,Burē,10.7,37.0667,56.32,95,99,3.09,ET,1661886100
278,Hervey Bay,-25.2986,152.8535,63.25,86,100,5.75,AU,1661885890
279,Anchorage,61.2181,-149.9003,62.2,82,98,10.0,US,1661886007
280,Agirish,61.9247,63.0231,51.6,97,100,3.67,RU,1661886101
281,Alyangula,-13.8483,136.4192,74.25,86,6,7.49,AU,1661886101
282,Tateyama,34.9833,139.8667,75.09,89,100,8.84,JP,1661886102
283,Martinho Campos,-19.3317,-45.2369,77.94,33,100,5.73,BR,1661886102
284,Nisí,40.6369,22.3878,80.08,77,55,5.86,GR,1661886103
285,Kysyl-Syr,63.8986,122.7617,42.82,92,100,6.85,RU,1661886103
286,Muros,42.7762,-9.0603,72.68,87,0,1.72,ES,1661886103
287,Masuguru,-11.3667,38.4167,78.04,54,23,9.42,TZ,1661886104
288,Çarşamba,41.1989,36.7219,80.78,94,4,2.28,TR,1661886104
289,Verkhoyansk,67.5447,133.385,54.57,64,100,3.53,RU,1661886105
290,Horasan,40.0458,42.1728,68.72,30,4,4.5,TR,1661886105
291,Tarakan,3.3,117.6333,78.62,81,100,5.3,ID,1661886105
292,Kangaatsiaq,68.3065,-53.4641,41.59,92,63,10.63,GL,1661886106
293,Ilulissat,69.2167,-51.1,57.22,35,20,16.11,GL,1661886106
294,Bayburt,40.2589,40.2278,64.85,44,0,0.4,TR,1661886107
295,Margate,51.3813,1.3862,67.3,76,51,5.99,GB,1661886107
296,Aksarka,66.5606,67.7975,44.38,77,98,7.47,RU,1661886107
297,Svobodnyy,51.4,128.1333,51.66,93,97,4.12,RU,1661886108
298,Hue,16.4667,107.6,80.71,89,20,4.61,VN,1661886083
299,Mogadishu,2.0371,45.3438,75.78,85,4,17.9,SO,1661886009
300,Coahuayana Viejo,18.7333,-103.6833,90.45,58,59,5.73,MX,1661886108
301,Ilhéus,-14.7889,-39.0494,72.23,66,99,16.69,BR,1661886109
302,Lorengau,-2.0226,147.2712,81.14,79,33,7.16,PG,1661886109
303,Barranca,-10.75,-77.7667,65.84,70,21,11.43,PE,1661886110
304,Ballina,-28.8667,153.5667,61.02,99,100,4.7,AU,1661886110
305,Muslyumovo,55.3033,53.1947,70.72,34,91,7.29,RU,1661886110
306,Crixás,-14.5489,-49.9692,95.86,15,0,8.81,BR,1661886111
307,Algiers,36.7525,3.042,87.62,55,0,5.75,DZ,1661886005
308,Buala,-8.145,159.5921,79.56,84,100,10.0,SB,1661886111
309,Ponta Delgada,37.7333,-25.6667,75.92,83,40,4.61,PT,1661886112
310,Miracema do Tocantins,-9.5618,-48.3967,99.32,16,10,5.26,BR,1661886112
311,Kindu,-2.95,25.95,68.32,97,96,1.88,CD,1661886112
312,Llanes,43.4198,-4.7549,68.86,88,99,3.18,ES,1661886113
313,Xinzhou,38.4092,112.7333,60.01,70,0,0.81,CN,1661886113
314,Belmonte,-15.8631,-38.8828,71.76,68,100,19.17,BR,1661886114
315,Linxia Chengguanzhen,35.6003,103.2064,56.37,62,100,2.77,CN,1661886114
316,Erdenet,49.0333,104.0833,40.75,94,33,3.04,MN,1661886114
317,Kabinda,-6.1333,24.4833,72.99,65,48,3.47,CD,1661886115
318,Kidal,18.4411,1.4078,97.57,18,5,12.84,ML,1661886115
319,Sumbe,-11.2061,13.8437,70.95,87,8,8.05,AO,1661886115
320,Saint-Louis,16.3333,-15.0,82.29,72,100,18.66,SN,1661886116
321,Obihiro,42.9172,143.2044,62.01,98,100,1.7,JP,1661886116
322,Tezu,27.9167,96.1667,75.92,99,100,3.31,IN,1661886117
323,Sinnamary,5.3833,-52.95,82.0,79,85,6.64,GF,1661886117
324,Codrington,-38.2667,141.9667,46.47,87,90,8.9,AU,1661886117
325,Oranjestad,12.524,-70.027,82.72,83,78,20.83,AW,1661886118
326,Panjakent,39.4952,67.6093,67.32,28,0,4.43,TJ,1661886118
327,Gao,16.6362,1.637,83.43,49,99,15.99,ML,1661886118
328,Kutum,14.2,24.6667,81.46,47,40,6.13,SD,1661886119
329,Voyvozh,62.892,54.9635,46.44,78,100,5.82,RU,1661886119
330,Katsuura,35.1333,140.3,78.91,91,100,9.37,JP,1661886120
331,Leningradskiy,69.3833,178.4167,34.47,97,100,8.93,RU,1661886120
332,Pokhara,28.2333,83.9833,71.2,89,64,4.81,NP,1661886120
333,Lüderitz,-26.6481,15.1594,62.76,47,1,4.54,NA,1661886121
334,Muriwai Beach,-36.8167,174.45,46.18,84,48,4.99,NZ,1661886073
335,Abhā,18.2164,42.5053,72.52,27,85,12.28,SA,1661886121
336,Douglas,41.3,-96.167,86.59,38,0,10.36,US,1661886048
337,Nantucket,41.2835,-70.0995,80.71,83,0,11.5,US,1661886122
338,Tulagi,-9.0996,160.1476,81.09,77,100,12.57,SB,1661886122
339,Rafrāf,37.1904,10.1837,80.91,72,0,11.7,TN,1661886123
340,Dāmghān,36.1683,54.348,73.98,32,0,2.77,IR,1661886123
341,Faya,18.3851,42.4509,71.89,25,25,11.92,SA,1661886124
342,Bolaños de Calatrava,38.9069,-3.6635,82.67,45,40,11.5,ES,1661886124
343,‘Āhuimanu,21.4447,-157.8378,83.17,70,75,11.5,US,1661886125
344,Chara,56.9064,118.2631,35.58,70,98,3.53,RU,1661886125
345,Salalah,17.0151,54.0924,76.66,84,88,4.29,OM,1661886126
346,Pascagoula,30.3658,-88.5561,94.55,63,100,2.8,US,1661886126
347,Kichera,55.9375,110.0997,38.98,82,92,3.69,RU,1661886126
348,Alice Springs,-23.7,133.8833,47.75,53,67,0.0,AU,1661886127
349,Gamba,-2.65,10.0,74.84,84,100,11.36,GA,1661886127
350,Sisimiut,66.9395,-53.6735,37.4,99,100,14.27,GL,1661886128
351,Santa Rosa,14.3122,121.1114,82.11,89,75,2.77,PH,1661886094
352,Saint George,37.1041,-113.5841,100.63,21,0,3.0,US,1661886001
353,Flinders,-34.5833,150.8552,53.38,78,2,3.0,AU,1661886128
354,Cluses,46.0625,6.575,66.31,97,100,2.06,FR,1661886129
355,Rohru,31.2167,77.75,63.81,95,22,1.63,IN,1661886129
356,Lucapa,-8.4192,20.7447,72.23,57,88,3.49,AO,1661886130
357,Susanville,40.4163,-120.653,88.12,30,0,8.05,US,1661886130
358,Antofagasta,-23.65,-70.4,62.38,68,15,7.16,CL,1661886011
359,Keetmanshoop,-26.5833,18.1333,67.46,15,0,12.64,NA,1661886131
360,Olonets,60.9847,32.9698,49.37,92,100,13.98,RU,1661886131
361,Anadyr,64.75,177.4833,46.0,87,100,15.01,RU,1661886131
362,Perivoli,39.4206,20.0147,76.66,67,2,10.42,GR,1661886132
363,Verkhnevilyuysk,63.4453,120.3167,40.95,87,100,5.44,RU,1661886132
364,Fare,-16.7,-151.0167,77.9,71,3,17.25,PF,1661886132
365,Hillsborough,37.5741,-122.3794,82.2,73,0,9.22,US,1661886004
366,Veseloyarsk,51.2836,81.1056,60.13,39,54,1.14,RU,1661886133
367,Vardø,70.3705,31.1107,40.98,81,75,6.91,NO,1661886133
368,Winslow,35.0242,-110.6974,87.98,23,0,5.75,US,1661886134
369,Yārāda,17.65,83.2667,82.72,89,40,2.3,IN,1661886134
370,Meadow Lake,34.8014,-106.5436,86.68,34,24,18.7,US,1661886134
371,Bengkulu,-3.8004,102.2655,75.34,91,95,4.07,ID,1661886135
372,Stornoway,58.2093,-6.3865,57.16,83,0,11.5,GB,1661886135
373,Chunskiy,56.0815,99.6342,37.44,69,94,3.44,RU,1661886136
374,Evanston,42.0411,-87.6901,80.96,48,0,5.01,US,1661885881
375,Kieta,-6.2167,155.6333,77.36,85,98,1.41,PG,1661886136
376,Campo Verde,-20.4167,-54.0667,75.99,41,100,11.59,BR,1661886005
377,Chittarkonda,18.1167,82.0833,74.68,93,68,2.08,IN,1661886137
378,Clyde River,70.4692,-68.5914,40.77,64,9,12.62,CA,1661886137
379,Tooele,40.5308,-112.2983,93.58,25,0,6.91,US,1661886138
380,Acapulco de Juárez,16.8634,-99.8901,86.72,66,12,10.69,MX,1661886138
381,Wewak,-3.5534,143.6268,79.03,87,65,8.59,PG,1661886138
382,Sorong,-0.8833,131.25,76.77,90,100,8.3,ID,1661886139
383,Wuwei,37.9281,102.6414,66.34,41,100,4.21,CN,1661886139
384,Hasaki,35.7333,140.8333,72.28,94,100,7.36,JP,1661886140
385,Kushmurun,52.4503,64.6311,71.87,36,28,6.82,KZ,1661886140
386,Dunedin,-45.8742,170.5036,45.5,82,100,8.14,NZ,1661886003
387,Esperance,-33.8667,121.9,47.39,73,5,6.89,AU,1661886141
388,Saint Paul Harbor,57.79,-152.4072,55.62,84,85,2.82,US,1661885861
389,Koulikoro,14.0,-7.75,77.67,75,36,7.92,ML,1661886141
390,Tougue,11.4667,-11.6,69.24,94,100,2.8,GN,1661886142
391,Yomou,7.5603,-9.2653,72.34,91,100,1.72,GN,1661886142
392,Isaka,-3.9,32.9333,77.11,46,97,2.21,TZ,1661886142
393,Pacific Grove,36.6177,-121.9166,76.39,74,0,10.36,US,1661886143
394,Bariloche,-41.1456,-71.3082,54.01,49,100,5.97,AR,1661886060
395,Evensk,61.95,159.2333,48.52,81,100,7.72,RU,1661886143
396,Sabattus,44.1198,-70.1076,90.91,72,40,13.8,US,1661886144
397,Libenge,3.65,18.6333,73.83,88,85,3.15,CD,1661886144
398,Port Said,31.2565,32.2841,81.25,76,0,13.13,EG,1661886144
399,Shetpe,44.1667,52.1167,81.93,21,0,1.68,KZ,1661886145
400,Tura,25.5198,90.2201,76.15,90,100,4.47,IN,1661886145
401,Mbanza-Ngungu,-5.25,14.8667,81.86,46,53,3.49,CD,1661886146
402,Pevek,69.7008,170.3133,33.03,92,79,17.87,RU,1661886146
403,Preobrazheniye,42.9019,133.9064,59.72,72,100,3.6,RU,1661886146
404,Mount Isa,-20.7333,139.5,64.17,72,6,10.36,AU,1661886147
405,Olinda,-8.0089,-34.8553,80.33,61,40,21.85,BR,1661886147
406,San Quintín,30.4833,-115.95,77.56,70,35,12.37,MX,1661886148
407,Kasamwa,-2.85,32.4333,70.02,70,40,3.49,TZ,1661886148
408,Eyl,7.9803,49.8164,76.55,81,83,21.12,SO,1661886141
409,Rome,43.2128,-75.4557,80.38,74,100,5.19,US,1661885763
410,Moose Factory,51.2585,-80.6094,67.98,73,75,19.57,CA,1661886149
411,Pangody,65.85,74.4859,40.8,83,94,18.81,RU,1661886149
412,Elizabeth City,36.2946,-76.2511,93.0,74,67,8.99,US,1661886150
413,Alexandria,31.2156,29.9553,81.01,69,0,9.78,EG,1661886150
414,Deputatsky,69.3,139.9,38.8,88,100,3.78,RU,1661886150
415,Ciudad Bolivar,8.1222,-63.5497,88.59,55,97,3.6,VE,1661886151
416,Esim,4.8699,-2.2405,74.57,91,100,8.16,GH,1661886151
417,Ugra,54.7777,34.3267,64.06,81,0,7.61,RU,1661886152
418,Praia da Vitória,38.7333,-27.0667,78.76,84,52,1.32,PT,1661886152
419,Iralaya,15.0,-83.2333,81.72,74,100,10.92,HN,1661886152
420,Vila do Maio,15.1333,-23.2167,83.19,74,100,12.37,CV,1661886153
421,Hamilton,39.1834,-84.5333,85.6,51,20,11.5,US,1661886153
422,Caborca,30.5838,-111.101,92.95,42,5,3.38,MX,1661886153
423,Bangassou,4.7413,22.8184,70.56,93,93,1.57,CF,1661886154
424,Srandakan,-7.9386,110.2506,75.83,89,100,3.83,ID,1661886154
425,Omboué,-1.5746,9.2618,75.96,84,5,9.19,GA,1661886155
426,Roald,62.5833,6.1333,58.15,76,20,19.57,NO,1661886078
427,Grand Bank,47.0999,-55.765,71.6,76,78,10.87,CA,1661886155
428,Pandan,14.0453,124.1694,79.47,85,76,3.94,PH,1661886155
429,Xiangfan,32.0422,112.1448,63.68,93,100,8.25,CN,1661886156
430,Alenquer,-1.9417,-54.7383,97.45,24,40,3.0,BR,1661886156
431,Tessalit,20.1986,1.0114,95.61,20,90,10.83,ML,1661886157
432,Arrondissement de Verdun,49.25,5.3333,62.83,90,100,4.03,FR,1661886157
433,São Félix do Xingu,-6.6447,-51.995,100.72,15,60,2.98,BR,1661886129
434,Krasnyy Yar,46.5331,48.3456,73.33,63,0,9.35,RU,1661886158
435,Ambanja,-13.6833,48.45,71.02,90,56,0.85,MG,1661886158
436,Poum,-20.2333,164.0167,72.09,66,7,13.69,NC,1661886158
437,Jinchang,38.4953,102.1739,68.81,36,100,3.49,CN,1661886159
438,Malmo,55.6059,13.0007,62.47,60,0,11.59,SE,1661886159
439,Jacqueville,5.2052,-4.4146,73.74,92,93,9.4,CI,1661886160
440,Khvoynaya,58.9,34.5333,55.67,95,100,9.04,RU,1661886160
441,Staryy Merchyk,49.9815,35.759,72.68,53,72,6.13,UA,1661886160
442,Port Augusta,-32.5,137.7667,42.48,80,0,4.94,AU,1661886161
443,Kampot,10.6167,104.1833,79.48,84,100,2.19,KH,1661886161
444,North Bend,43.4065,-124.2243,75.92,84,0,13.8,US,1661886161
445,Port Macquarie,-31.4333,152.9167,54.9,100,9,0.0,AU,1661886162
446,Poso,-1.3959,120.7524,75.06,93,100,6.58,ID,1661886162
447,Biak,-0.9131,122.8766,74.73,90,95,6.49,ID,1661886162
448,Urusha,54.05,122.9,41.56,85,35,3.36,RU,1661886163
449,Pingxiang,27.6167,113.85,69.19,87,100,3.69,CN,1661886163
450,Nanning,22.8167,108.3167,81.77,75,91,1.66,CN,1661886164
451,Pangkalanbuun,-2.6833,111.6167,74.53,95,100,2.04,ID,1661886164
452,Zhigansk,66.7697,123.3711,44.76,84,87,4.76,RU,1661886165
453,Palmer,42.1584,-72.3287,89.62,56,40,17.27,US,1661886165
454,Shuangcheng,45.35,126.2833,57.02,94,8,2.91,CN,1661886165
455,Aktau,43.65,51.2,75.78,31,0,8.52,KZ,1661886166
456,Comodoro Rivadavia,-45.8667,-67.5,58.01,40,100,11.5,AR,1661886166
457,George Town,5.4112,100.3354,79.9,90,20,3.44,MY,1661886166
458,Chapais,49.7834,-74.8492,67.78,87,100,10.71,CA,1661886167
459,Powell River,49.8496,-124.5361,80.33,67,52,3.47,CA,1661886167
460,Karabash,55.4808,60.2157,65.12,55,100,3.87,RU,1661886168
461,Manakara,-22.1333,48.0167,68.38,96,31,5.7,MG,1661886168
462,Port Hedland,-20.3167,118.5667,66.25,52,15,0.0,AU,1661886157
463,Yumen,40.2833,97.2,68.7,21,0,4.97,CN,1661886168
464,Angatuba,-23.4897,-48.4128,63.1,54,100,15.84,BR,1661886169
465,Barcelona,41.3888,2.159,87.13,80,20,12.66,ES,1661886116
466,Marystown,47.1666,-55.1483,70.07,73,87,10.92,CA,1661886169
467,Montmagny,48.9734,2.3469,80.02,42,0,8.05,FR,1661886061
468,Rāzole,16.4833,81.8333,79.03,86,47,2.28,IN,1661886170
469,Katima Mulilo,-17.5,24.2667,73.89,21,0,9.22,NA,1661886170
470,Tautira,-17.7333,-149.15,76.95,71,38,13.87,PF,1661886073
471,Celestún,20.8667,-90.4,86.9,65,96,14.43,MX,1661886171
472,Moerai,-22.4333,-151.3333,74.48,80,28,10.58,PF,1661886171
473,Gualaco,15.05,-86.05,87.64,84,94,3.47,HN,1661886172
474,Kiruna,67.8557,20.2251,43.72,81,100,3.44,SE,1661886172
475,Talnakh,69.4865,88.3972,40.46,87,100,4.32,RU,1661886172
476,Qidong,31.8128,121.6561,78.93,90,100,13.6,CN,1661886173
477,Black River,18.0264,-77.8487,86.74,65,100,14.32,JM,1661886173
478,Kolondiéba,11.0882,-6.8926,73.49,95,100,4.43,ML,1661886174
479,Bontang,0.1333,117.5,76.19,89,100,3.42,ID,1661886174
480,Sibolga,1.7427,98.7792,74.86,89,56,2.73,ID,1661886174
481,Departamento de Maldonado,-34.6667,-54.9167,60.28,53,0,9.51,UY,1661886175
482,Nabire,-3.3667,135.4833,74.05,92,66,3.11,ID,1661886175
483,Kiunga,-6.1219,141.2906,71.78,100,76,1.07,PG,1661886176
484,St. George's,12.0564,-61.7485,84.76,66,100,12.28,GD,1661886047
485,Rosetta,31.4044,30.4164,79.63,73,0,11.72,EG,1661886176
486,Poya,-21.35,165.15,66.33,77,44,6.02,NC,1661886177
487,Zhangye,38.9342,100.4517,70.38,32,100,2.62,CN,1661886177
488,Pimentel,-6.8367,-79.9342,66.43,76,79,13.44,PE,1661886177
489,Sheksna,59.21,38.5107,58.96,84,87,13.71,RU,1661886178
490,Picos,-7.0769,-41.4669,94.8,21,75,10.63,BR,1661886178
491,Bismarck,46.8083,-100.7837,85.64,30,0,10.36,US,1661886045
492,Klaksvík,62.2266,-6.589,50.92,75,23,10.74,FO,1661886179
493,Itārsi,22.6167,77.75,77.52,88,26,2.21,IN,1661886179
494,Jackson,42.4165,-122.8345,90.75,29,0,3.31,US,1661885929
495,Brigantine,39.4101,-74.3646,91.2,73,0,16.11,US,1661886180
496,Arrondissement de Bressuire,46.9167,-0.5,77.04,47,100,3.47,FR,1661886180
497,Catuday,16.2923,119.8062,80.33,81,76,3.11,PH,1661886180
498,Brühl,50.8293,6.905,75.81,47,0,10.36,DE,1661886181
499,Tagusao,9.1924,117.8141,80.98,79,100,2.93,PH,1661886181
500,Skibbereen,51.55,-9.2667,64.11,68,100,16.22,IE,1661886182
501,Acarí,-15.4311,-74.6158,75.45,47,1,9.42,PE,1661886182
502,Fortuna,40.5982,-124.1573,61.72,100,40,9.22,US,1661886182
503,Grand Gaube,-20.0064,57.6608,67.37,76,1,3.0,MU,1661886183
504,Thinadhoo,0.5333,72.9333,81.28,73,100,17.02,MV,1661886183
505,Vettavalam,12.1,79.25,78.03,84,90,1.36,IN,1661886183
506,Thompson,55.7435,-97.8558,54.39,46,8,12.64,CA,1661886184
507,Mirny,62.5353,113.9611,37.0,97,100,10.85,RU,1661886184
508,Oodweyne,9.4092,45.064,77.25,52,100,5.95,SO,1661886185
509,Mishelevka,52.8575,103.1719,43.72,86,83,2.57,RU,1661886185
510,Nouadhibou,20.931,-17.0347,73.8,89,74,14.52,MR,1661886186
511,Mumbwa,-14.9783,27.0619,72.66,25,81,8.68,ZM,1661886186
512,Ust-Tsilma,65.441,52.1498,44.29,92,14,7.63,RU,1661886186
513,Charagua,-19.8,-63.2167,81.18,19,0,11.45,BO,1661886187
514,Tilichiki,60.4667,166.1,46.51,85,100,6.22,RU,1661886187
515,Nanortalik,60.1432,-45.2371,39.99,89,97,11.56,GL,1661886188
516,Virginia Beach,36.8529,-75.978,94.05,60,67,1.01,US,1661886004
517,Athabasca,54.7169,-113.2854,83.03,34,0,11.34,CA,1661886188
518,Pingliang,35.5392,106.6861,61.66,51,100,3.8,CN,1661886189
519,Bonfim,3.0833,-59.95,88.86,54,39,0.27,BR,1661886189
520,Vila Franca do Campo,37.7167,-25.4333,75.61,84,59,4.79,PT,1661886190
521,Gerede,40.8008,32.1969,64.09,80,1,1.34,TR,1661886190
522,Tongliao,43.6125,122.2653,59.7,65,14,7.74,CN,1661886028
523,San Ramon,37.7799,-121.978,81.55,58,0,1.01,US,1661885902
524,Kulunda,52.566,78.9385,66.22,46,100,5.06,RU,1661886191
525,Gushikawa,26.3544,127.8686,83.79,83,0,10.36,JP,1661886192
526,Elesbão Veloso,-6.2019,-42.1403,97.57,19,55,10.42,BR,1661886192
527,Prince George,53.9166,-122.753,77.25,55,0,10.36,CA,1661885983
528,Arrondissement du Havre,49.5833,0.3333,68.4,73,0,11.5,FR,1661886193
529,Paranaíba,-19.6772,-51.1908,84.42,31,99,8.16,BR,1661886194
530,Valparaíso,-33.0393,-71.6273,60.01,90,100,5.75,CL,1661885968
531,Pangai,-19.8,-174.35,74.43,79,0,8.68,TO,1661886195
532,Bay Saint Louis,30.3088,-89.33,96.06,61,0,5.75,US,1661886196
533,Adré,13.4667,22.2,78.19,70,16,2.62,TD,1661886196
534,Farafangana,-22.8167,47.8333,69.22,93,13,4.59,MG,1661886137
535,Shingū,33.7333,135.9833,78.28,92,97,1.25,JP,1661886197
536,Kyabram,-36.3167,145.05,39.87,91,0,5.48,AU,1661886197
537,Bereda,43.2686,-7.5406,67.41,93,49,3.31,ES,1661886198
538,Villa Carlos Paz,-31.4241,-64.4978,69.06,18,0,15.99,AR,1661886198
539,Wanning,18.8003,110.3967,79.38,84,16,3.56,CN,1661886199
540,Šibenik,43.7272,15.9058,80.38,51,0,1.01,HR,1661886199
541,Hibbing,47.4272,-92.9377,72.91,49,40,12.66,US,1661886200
542,Tromsø,69.6496,18.957,46.42,93,75,4.61,NO,1661886200
543,Saint Simons,31.1352,-81.3901,84.24,74,20,6.91,US,1661886201
544,Ouadda,8.0777,22.4007,69.76,97,3,3.51,CF,1661886205
545,Champerico,14.3,-91.9167,91.94,70,21,5.88,GT,1661886205
546,Khuzdar,27.7384,66.6434,77.52,67,82,2.82,PK,1661886206
547,Saint Anthony,45.0205,-93.218,79.93,46,0,12.66,US,1661886049
548,Saint-François,46.4154,3.9054,63.84,94,100,8.05,FR,1661886206
549,Ulaanbaatar,47.9077,106.8832,45.5,80,7,4.76,MN,1661886133
550,Vallenar,-28.5708,-70.7581,75.51,34,0,8.03,CL,1661886207
551,Girvan,55.2426,-4.8555,60.8,77,99,7.56,GB,1661886207
552,Cuenca,-2.8833,-78.9833,57.33,88,100,9.22,EC,1661885964
553,Powell,40.1578,-83.0752,81.82,56,40,12.66,US,1661886208
554,Omsukchan,62.5333,155.8,39.78,86,100,3.87,RU,1661886209
555,Sennar,13.5691,33.5672,87.04,52,100,8.28,SD,1661886209
556,Qingdao,36.0986,120.3719,67.26,86,6,7.47,CN,1661886210
557,Yarmouth,41.7057,-70.2286,82.15,82,75,14.97,US,1661886210
558,Ballybofey,54.8,-7.7833,65.98,93,6,3.56,IE,1661886210
559,Aripuanã,-9.1667,-60.6333,100.45,17,51,3.96,BR,1661886211
560,Øksfjord,70.2396,22.3479,48.38,91,100,8.7,NO,1661886212
561,Manuk Mangkaw,4.8,119.85,81.93,74,100,4.0,PH,1661886212
562,Coyhaique,-45.5752,-72.0662,44.17,98,100,4.83,CL,1661885995
563,Jianning,27.8333,113.15,68.83,79,97,7.94,CN,1661886016
564,Ukiah,39.1502,-123.2078,97.38,43,0,6.02,US,1661886001
565,Asău,46.4333,26.4,68.92,93,94,6.49,RO,1661886213
566,Khasan,42.4308,130.6434,61.65,92,32,4.74,RU,1661886214
567,Aleksandrovsk-Sakhalinskiy,50.8975,142.1561,57.42,88,24,9.19,RU,1661886214
568,Qadirpur Ran,30.2924,71.6712,87.69,61,0,7.43,PK,1661886215
569,Tigil',57.8,158.6667,50.18,95,100,12.75,RU,1661886215
570,Broken Hill,-31.95,141.4333,42.82,75,0,9.62,AU,1661886216
571,Pecos,31.4229,-103.4932,80.69,47,40,8.05,US,1661886216
572,Sept-Îles,50.2001,-66.3821,63.12,93,100,9.22,CA,1661886217
573,Rock Sound,24.9,-76.2,83.82,71,8,12.93,BS,1661886199
574,Atar,20.5169,-13.0499,83.91,58,100,2.55,MR,1661886143
575,Kargasok,59.0556,80.8572,60.01,88,98,11.27,RU,1661886218
576,Sangar,63.9242,127.4739,42.8,95,100,4.07,RU,1661886218
577,Ji’an,27.1172,114.9793,75.11,89,99,8.16,CN,1661886218
578,Trelew,-43.249,-65.3051,70.74,14,100,10.04,AR,1661886219
579,Shache,38.4167,77.2406,71.46,42,18,1.61,CN,1661886219
580,Xiazhen,34.8022,117.1117,61.16,94,100,4.65,CN,1661886220
581,Coos Bay,43.3665,-124.2179,75.99,84,0,13.8,US,1661886220
582,Yerbogachën,61.2767,108.0108,37.54,92,100,16.58,RU,1661886220
583,Tombouctou,20.0,-3.0,91.22,38,3,11.54,ML,1661886221
584,Port Blair,11.6667,92.75,81.48,82,49,7.9,IN,1661886221
585,Kāranja,20.4833,77.4833,78.49,81,74,3.85,IN,1661886222
586,Vila Praia de Âncora,41.811,-8.8526,66.11,79,0,4.79,PT,1661886222
587,Nicosia,35.1667,33.3667,81.32,65,0,9.22,CY,1661886131
588,Primorsko-Akhtarsk,46.0497,38.1747,78.64,60,0,7.56,RU,1661886223
589,Gardenstown,57.671,-2.336,54.12,70,10,5.37,GB,1661886223
590,Samsun Province,41.25,36.3333,79.99,99,20,0.0,TR,1661886224
